{"location_name":"Lents Fridge (North)","fridge":"Yes","pantry":"No","fridge_type":"Small Fridge","freezer":"No","cross_streets":"SE 99th and SE Pardee","additions":"","latitude":"45.488696","longitude":"-122.562064","geometry":{"type":"Point","coordinates":[-122.562064,45.488696]}}
{"location_name":"Tabor","fridge":"Yes","pantry":"Yes","fridge_type":"Mini","freezer":"No","cross_streets":"SE Stark and SE 75th","additions":"Coat rack","latitude":"45.519259","longitude":"-122.585858","geometry":{"type":"Point","coordinates":[-122.585858,45.519259]}}
{"location_name":"Cully Residential","fridge":"Yes","pantry":"Yes","fridge_type":"Full Size","freezer":"No","cross_streets":"NE Simpson Ct near NE 42nd","additions":"","latitude":"45.565874","longitude":"-122.618771","geometry":{"type":"Point","coordinates":[-122.618771,45.565874]}}
{"location_name":"Open Signal","fridge":"Yes","pantry":"Yes","fridge_type":"Full Size","freezer":"No","cross_streets":"NE Graham near NE MLK","additions":"","latitude":"45.542817","longitude":"-122.661461","geometry":{"type":"Point","coordinates":[-122.661461,45.542817]}}
{"location_name":"Red House on Mississippi","fridge":"Yes","pantry":"Yes","fridge_type":"Full Size","freezer":"Yes","cross_streets":"N Mississippi and N Prescott","additions":"","latitude":"45.55539387","longitude":"-122.675401","geometry":{"type":"Point","coordinates":[-122.675401,45.55539387]}}
{"location_name":"Irvington Full Fridge","fridge":"Yes","pantry":"Yes","fridge_type":"Yes","freezer":"Yes","cross_streets":"NE 13th and NE Failing","additions":"","latitude":"45.5515109","longitude":"-122.6528355","geometry":{"type":"Point","coordinates":[-122.6528355,45.5515109]}}
{"location_name":"Irvington Mini","fridge":"Yes","pantry":"Yes","fridge_type":"Mini","freezer":"No","cross_streets":"NE 7th between NE Fremont and NE Beech","additions":"Coat rack","latitude":"45.549108","longitude":"-122.658864","geometry":{"type":"Point","coordinates":[-122.658864,45.549108]}}
{"location_name":"Pico Pantry","fridge":"No","pantry":"Yes","fridge_type":"No","freezer":"No","cross_streets":"SW 141st Ave & SW Bonnie Brae St.","additions":"","latitude":"45.47864","longitude":"-122.821605","geometry":{"type":"Point","coordinates":[-122.821605,45.47864]}}
{"location_name":"Patti's Memorial Pantry","fridge":"No","pantry":"Yes","fridge_type":"No","freezer":"No","cross_streets":"Parkview Loop between Fannowood Ln and Pearson Ct.","additions":"","latitude":"45.454757","longitude":"-122.798149","geometry":{"type":"Point","coordinates":[-122.798149,45.454757]}}
{"location_name":"Mt Scott/Arleta Residential","fridge":"Yes","pantry":"Yes","fridge_type":"Mini","freezer":"No","cross_streets":"SE 67th and SE Henry","additions":"Coat rack","latitude":"45.476788","longitude":"-122.594507","geometry":{"type":"Point","coordinates":[-122.594507,45.476788]}}
{"location_name":"Albina Pantry","fridge":"No","pantry":"Yes","fridge_type":"No","freezer":"No","cross_streets":"SW Corner between NE Albina and Rosa Parks","additions":"","latitude":"45.56966","longitude":"-122.67497","geometry":{"type":"Point","coordinates":[-122.67497,45.56966]}}
{"location_name":"Little Free Pantry","fridge":"No","pantry":"Yes","fridge_type":"No","freezer":"No","cross_streets":"Sorerento and 130th, SW Hart Rd.","additions":"","latitude":"45.467063","longitude":"-122.809393","geometry":{"type":"Point","coordinates":[-122.809393,45.467063]}}
{"location_name":"Hosford Abernethy","fridge":"Yes","pantry":"Yes","fridge_type":"Full-Size","freezer":"Yes","cross_streets":"SE 9th & SE Grant at Shaking the Tree Theater","additions":"Microwave","latitude":"45.507412","longitude":"-122.656864","geometry":{"type":"Point","coordinates":[-122.656864,45.507412]}}
{"location_name":"Lents Park Pantry","fridge":"No","pantry":"Yes","fridge_type":"No","freezer":"No","cross_streets":"SE 88th, between SE Liebe and Steele","additions":"","latitude":"45.48608","longitude":"-122.57227","geometry":{"type":"Point","coordinates":[-122.57227,45.48608]}}
{"location_name":"Mutual Mart","fridge":"No","pantry":"Yes","fridge_type":"No","freezer":"No","cross_streets":"178th and 179th, SW Vincent St.","additions":"","latitude":"45.488855","longitude":"-122.862333","geometry":{"type":"Point","coordinates":[-122.862333,45.488855]}}
{"location_name":"OPA Box","fridge":"No","pantry":"Yes","fridge_type":"No","freezer":"No","cross_streets":"185th and 186th, SW Pike St.","additions":"","latitude":"45.490376","longitude":"-122.869874","geometry":{"type":"Point","coordinates":[-122.869874,45.490376]}}
{"location_name":"Mini Super","fridge":"No","pantry":"Yes","fridge_type":"No","freezer":"No","cross_streets":"SW 9th Street, between Lombard and Alger","additions":"","latitude":"45.480712","longitude":"-122.798315","geometry":{"type":"Point","coordinates":[-122.798315,45.480712]}}
{"location_name":"Parkrose Residential","fridge":"No","pantry":"Yes","fridge_type":"No","freezer":"No","cross_streets":"NE 111th & NE Tillamook","additions":"","latitude":"45.537487","longitude":"-122.549284","geometry":{"type":"Point","coordinates":[-122.549284,45.537487]}}
{"location_name":"Troutdale (Troutdale Terrace Apartments)","fridge":"Yes","pantry":"Yes","fridge_type":"2 Full Size","freezer":"Yes","cross_streets":"SW 275th between SW Halsey and SW Cherry at the Troutdale Terrace Apartments","additions":"","latitude":"45.536957","longitude":"-122.395955","geometry":{"type":"Point","coordinates":[-122.395955,45.536957]}}
{"location_name":"Richmond","fridge":"No","pantry":"Yes","fridge_type":"No","freezer":"No","cross_streets":"SE Tibbets and SE 49th","additions":"","latitude":"45.500273","longitude":"-122.612563","geometry":{"type":"Point","coordinates":[-122.612563,45.500273]}}
{"location_name":"Kenton","fridge":"Yes","pantry":"Yes","fridge_type":"Full Size","freezer":"Yes","cross_streets":"N Kilpatrick near N Delaware","additions":"Microwave, coat rack","latitude":"45.58214","longitude":"-122.691806","geometry":{"type":"Point","coordinates":[-122.691806,45.58214]}}
{"location_name":"Boise Pantry","fridge":"No","pantry":"Yes","fridge_type":"No","freezer":"Yes","cross_streets":"N Jessup & N Haight","additions":"","latitude":"45.563909","longitude":"-122.670147","geometry":{"type":"Point","coordinates":[-122.670147,45.563909]}}
{"location_name":"Portsmouth Pantry","fridge":"No","pantry":"Yes","fridge_type":"No","freezer":"No","cross_streets":"N Chautauqua near N Kilpatrick","additions":"","latitude":"45.581903","longitude":"-122.70761","geometry":{"type":"Point","coordinates":[-122.70761,45.581903]}}
{"location_name":"Wonderland Fridge","fridge":"Yes","pantry":"No","fridge_type":"Full Size","freezer":"Yes","cross_streets":"Princess and King, SW Imperial Dr.","additions":"","latitude":"45.472724","longitude":"-122.791352","geometry":{"type":"Point","coordinates":[-122.791352,45.472724]}}
{"location_name":"Glenfair Pantry","fridge":"No","pantry":"Yes","fridge_type":"No","freezer":"No","cross_streets":"NE Couch off of NE 151st","additions":"","latitude":"45.52359036","longitude":"-122.5059946","geometry":{"type":"Point","coordinates":[-122.5059946,45.52359036]}}
{"location_name":"Alberta Arts Fridge","fridge":"Yes","pantry":"Yes","fridge_type":"Full Size","freezer":"Yes","cross_streets":"NE Alberta and NE 16th","additions":"Microwave","latitude":"45.5235904","longitude":"-122.6481575","geometry":{"type":"Point","coordinates":[-122.6481575,45.5235904]}}
{"location_name":"Poetree Pantry","fridge":"No","pantry":"Yes","fridge_type":"No","freezer":"No","cross_streets":"N Williams and N Rosa Parks","additions":"","latitude":"45.57070859","longitude":"-122.6690241","geometry":{"type":"Point","coordinates":[-122.6690241,45.57070859]}}
{"location_name":"Portsmouth","fridge":"No","pantry":"Yes","fridge_type":"No","freezer":"No","cross_streets":"N Lombard & N Fiske","additions":"","latitude":"45.58026255","longitude":"-122.7176057","geometry":{"type":"Point","coordinates":[-122.7176057,45.58026255]}}
{"location_name":"Montavilla","fridge":"Yes","pantry":"No","fridge_type":"Full Size","freezer":"Yes","cross_streets":"SE Stephens & SE 76th","additions":"Coat rack","latitude":"45.50933751","longitude":"-122.584499","geometry":{"type":"Point","coordinates":[-122.584499,45.50933751]}}
{"location_name":"Sellwood Lending Pantry","fridge":"No","pantry":"Yes","fridge_type":"No","freezer":"No","cross_streets":"SE 16th & SE Nehalem","additions":"","latitude":"45.46574638","longitude":"-122.6490061","geometry":{"type":"Point","coordinates":[-122.6490061,45.46574638]}}
{"location_name":"West Portland Park","fridge":"No","pantry":"Yes","fridge_type":"No","freezer":"No","cross_streets":"SW Huber between SW 40th & SW 35th","additions":"","latitude":"45.45186371","longitude":"-122.7157392","geometry":{"type":"Point","coordinates":[-122.7157392,45.45186371]}}
{"location_name":"Glenfair Fridge","fridge":"Yes","pantry":"No","fridge_type":"Full Size","freezer":"Yes","cross_streets":"NE Davis St and NE 160th","additions":"","latitude":"45.52386803","longitude":"-122.4998711","geometry":{"type":"Point","coordinates":[-122.4998711,45.52386803]}}
{"location_name":"Lents Fridge (South)","fridge":"Yes","pantry":"Yes","fridge_type":"Full Size","freezer":"Yes","cross_streets":"SE 85th near SE Knapp","additions":"","latitude":"45.47080678","longitude":"-122.5760388","geometry":{"type":"Point","coordinates":[-122.5760388,45.47080678]}}
{"location_name":"Vernon Fridge","fridge":"Yes","pantry":"Yes","fridge_type":"Full Size","freezer":"Yes","cross_streets":"NE 15th and NE Emerson","additions":"Coat rack","latitude":"45.56158259","longitude":"-122.6498426","geometry":{"type":"Point","coordinates":[-122.6498426,45.56158259]}}
{"location_name":"Sunnyside - SE Uplift","fridge":"No","pantry":"Yes","fridge_type":"No","freezer":"No","cross_streets":"SE Main between SE 35 & SE 36","additions":"","latitude":"45.51354243","longitude":"-122.6275848","geometry":{"type":"Point","coordinates":[-122.6275848,45.51354243]}}
{"location_name":"Richmond Fridge","fridge":"Yes","pantry":"Yes","fridge_type":"Full Size","freezer":"Yes","cross_streets":"SE 50th & SE Lincoln","additions":"Coat rack","latitude":"45.50820925","longitude":"-122.6114402","geometry":{"type":"Point","coordinates":[-122.6114402,45.50820925]}}
{"location_name":"Greeley Residential","fridge":"Yes","pantry":"No","fridge_type":"Mini","freezer":"No","cross_streets":"N Greeley between N Ainsworth and N Holman","additions":"","latitude":"45.567369","longitude":"-122.695384","geometry":{"type":"Point","coordinates":[-122.695384,45.567369]}}
{"location_name":"Liberation Fridge","fridge":"Yes","pantry":"No","fridge_type":"Full Size","freezer":"Yes","cross_streets":"SE 32nd & Main St (Hillsboro)","additions":"","latitude":"45.51984432","longitude":"-122.9483145","geometry":{"type":"Point","coordinates":[-122.9483145,45.51984432]}}
{"location_name":"Gateway","fridge":"Yes","pantry":"Yes","fridge_type":"Full Size","freezer":"Yes","cross_streets":"NE 116th Pl and NE Halsey, a little down NE 116th","additions":"","latitude":"45.53453672","longitude":"-122.5431427","geometry":{"type":"Point","coordinates":[-122.5431427,45.53453672]}}
{"location_name":"Concordia (La Bodega Libre)","fridge":"Yes","pantry":"Yes","fridge_type":"Mini","freezer":"Yes","cross_streets":"NE Ainsworth and NE 24th","additions":"","latitude":"45.56647543","longitude":"-122.6417561","geometry":{"type":"Point","coordinates":[-122.6417561,45.56647543]}}